State,District,Latitude,Longitude,District code,District name,Population,Male_Literate,Female_Literate,Households_with_Internet,Housholds_with_Electric_Lighting,Rural_Households,Sex_Ratio,Literacy_ratte
Andhra Pradesh,Adilabad,19.284513950073435,78.81321233480176,532,Adilabad,2741239,856350,626997,5512,566108,597466,100.0,54.0
Andhra Pradesh,Anantapur,14.312065561843148,77.4601584478577,553,Anantapur,4081148,1338474,972486,8606,897970,902997,98.0,57.0
Andhra Pradesh,Chittoor,13.33109263067696,78.92763898886037,554,Chittoor,4174064,1484794,1183084,13763,944555,907970,100.0,64.0
Andhra Pradesh,East Godavari,16.782718320784902,82.2432074720511,545,East Godavari,5154296,1716933,1571644,22411,1297273,1199479,101.0,64.0
Andhra Pradesh,Guntur,15.884925767634847,80.58657614107885,548,Guntur,4887813,1634726,1325715,19383,1186028,1069877,100.0,61.0
Andhra Pradesh,Hyderabad,17.38971555555556,78.46668888888888,536,Hyderabad,3943323,1542688,1349467,149034,869721,0,95.0,73.0
Andhra Pradesh,Karimnagar,18.515483193277312,79.43765428571413,534,Karimnagar,3776269,1257238,949591,8831,926768,877236,101.0,58.0
Andhra Pradesh,Khammam,17.683921325051784,80.67008643892335,541,Khammam,2797370,901640,728594,8628,668519,669262,101.0,58.0
Andhra Pradesh,Krishna,16.143872753151673,81.14805061000413,547,Krishna,4517398,1598959,1410759,30438,1163932,909292,99.0,67.0
Andhra Pradesh,Kurnool,15.43759715142429,77.90086836581717,552,Kurnool,4053463,1246369,880792,10081,816721,783853,99.0,52.0
Andhra Pradesh,Mahbubnagar,16.639546224256293,77.98933089244859,538,Mahbubnagar,4053028,1158386,782260,6153,757821,848963,98.0,48.0
Andhra Pradesh,Medak,17.889304978038055,78.13778901903379,535,Medak,3033288,953406,683731,8635,604719,593653,99.0,54.0
Andhra Pradesh,Nalgonda,17.113250515463907,79.16984453608244,539,Nalgonda,3488809,1160757,840262,7715,789225,833504,98.0,57.0
Andhra Pradesh,Nizamabad,18.429485849056604,78.07523490566035,533,Nizamabad,2551335,790214,599596,5261,545913,565165,104.0,54.0
Andhra Pradesh,Prakasam,15.489039001601704,80.11665790176184,549,Prakasam,3397448,1107686,796749,6151,763746,873486,98.0,56.0
Andhra Pradesh,Srikakulam,18.570900998697432,84.25874814010675,542,Srikakulam,2703114,857824,637557,3988,615432,752752,101.0,55.0
Andhra Pradesh,Vizianagaram,18.28329696032972,83.45982854198873,543,Vizianagaram,2344474,707503,530885,4453,527736,592458,102.0,53.0
Andhra Pradesh,Warangal,18.01752608695651,79.87422028985509,540,Warangal,3512576,1179790,885233,12952,828077,758738,100.0,59.0
Andhra Pradesh,West Godavari,16.63297943925236,81.45912990654196,546,West Godavari,3936966,1379223,1273166,12050,1017568,1007255,100.0,67.0
Arunachal Pradesh,Changlang,27.36048479338845,96.37552644628106,253,Changlang,148226,44027,29147,170,14593,33422,93.0,49.0
Arunachal Pradesh,East Kameng,27.371194055944056,93.04741486013997,247,East Kameng,78690,21599,16850,57,5318,14503,103.0,49.0
Arunachal Pradesh,East Siang,28.15382352941176,95.06499226006191,251,East Siang,99214,34210,28366,450,14231,19497,98.0,63.0
Arunachal Pradesh,Kurung Kumey,28.04853351800553,93.24531994459834,256,Kurung Kumey,92076,20258,16348,95,3911,18603,103.0,40.0
Arunachal Pradesh,Lohit,27.946785273972623,96.59670770547945,259,Lohit,145726,48380,34682,312,17157,33599,91.0,57.0
Arunachal Pradesh,Lower Dibang Valley,28.32651730103806,95.76567335640142,258,Lower Dibang Valley,54080,18087,13762,207,5932,12000,93.0,59.0
Arunachal Pradesh,Lower Subansiri,27.70849297297297,93.96226108108112,255,Lower Subansiri,83030,29470,24587,381,12493,18112,98.0,65.0
Arunachal Pradesh,Papum Pare,27.273529716981127,93.54468183962264,248,Papum Pare,176573,65794,55254,2477,30539,20308,98.0,69.0
Arunachal Pradesh,Tawang,27.680683962264148,91.82504245283016,245,Tawang,49977,17720,8353,96,8635,10730,71.0,52.0
Arunachal Pradesh,Tirap,26.94406229508198,95.41470327868862,254,Tirap,111975,29313,18661,98,16026,18420,94.0,43.0
Arunachal Pradesh,Upper Siang,28.8309244897959,95.00155765306124,252,Upper Siang,35320,10723,7472,97,6198,8569,89.0,52.0
Arunachal Pradesh,Upper Subansiri,28.277196566523585,93.8991435622318,249,Upper Subansiri,83448,24807,20471,139,5373,14542,100.0,54.0
Arunachal Pradesh,West Kameng,27.46486582278483,92.65015750452083,246,West Kameng,83947,29566,18926,202,14188,17889,82.0,58.0
Arunachal Pradesh,West Siang,28.106296920289843,94.53510344202908,250,West Siang,112274,36777,27969,303,14204,22272,93.0,58.0
Assam,Barpeta,26.427872264631056,90.97912010178116,303,Barpeta,1693622,499038,398020,2078,84804,447189,95.0,53.0
Assam,Bongaigaon,26.45012521994133,90.6734296187684,319,Bongaigaon,738804,237114,196964,2523,49866,181923,97.0,59.0
Assam,Cachar,24.815570668693017,92.86849650455927,316,Cachar,1736617,639946,534182,5316,140205,346227,96.0,68.0
Assam,Darrang,26.58463215962442,92.04141338028155,325,Darrang,928500,268666,218373,1166,45444,268517,95.0,52.0
Assam,Dhemaji,27.586533438485816,94.71336908517353,308,Dhemaji,686133,237761,185267,1192,28195,211758,95.0,62.0
Assam,Dibrugarh,27.30612284482757,95.0998282327587,310,Dibrugarh,1326335,491361,393170,8817,136685,299852,96.0,67.0
Assam,Goalpara,26.017277777777807,90.59869891598912,302,Goalpara,1008183,304302,259275,1364,78641,228610,96.0,56.0
Assam,Golaghat,26.377219709794485,93.82583397823468,313,Golaghat,1066888,396475,325289,3073,82345,292893,96.0,68.0
Assam,Hailakandi,24.457496089385486,92.59154664804475,318,Hailakandi,659296,226836,180530,1211,44143,159215,95.0,62.0
Assam,Jorhat,26.76244824016563,94.30197722567289,312,Jorhat,1092256,432335,362594,5651,122063,286330,96.0,73.0
Assam,Kamrup,26.170939452054807,91.58863273972592,321,Kamrup,1517542,550219,445100,3109,122191,390596,95.0,66.0
Assam,Karbi Anglong,26.08966454598031,93.11536570271832,314,Karbi Anglong,956313,314253,242961,1923,53918,215691,95.0,58.0
Assam,Karimganj,24.69660712250711,92.3679498575498,317,Karimganj,1228686,435942,359355,1933,70951,261945,96.0,65.0
Assam,Kokrajhar,26.497246635730868,90.13997470997688,300,Kokrajhar,887142,275220,214085,1218,41373,204896,96.0,55.0
Assam,Lakhimpur,27.14128805970149,94.0775949253732,307,Lakhimpur,1042137,375552,307934,1948,60296,293239,97.0,66.0
Assam,Nagaon,26.26462170626351,92.9306191144708,305,Nagaon,2823768,921850,788866,5121,195631,674999,96.0,61.0
Assam,Nalbari,26.46323767605632,91.40598521126763,323,Nalbari,771639,293184,238587,1631,68313,210706,95.0,69.0
Assam,Sonitpur,26.73514926829268,92.85197804878044,306,Sonitpur,1924110,620525,488047,4358,133368,483325,96.0,58.0
Assam,Tinsukia,27.53549291139241,95.69055949367085,309,Tinsukia,1327929,453449,344873,5135,161718,290704,95.0,60.0
Bihar,Araria,26.211528119180603,87.30766554934816,209,Araria,2811569,727643,468125,2561,43290,659061,92.0,43.0
Bihar,Aurangabad,24.774291867469877,84.45986024096379,235,Aurangabad,2540073,868733,597269,2362,44456,428291,93.0,58.0
Bihar,Aurangabad,24.774291867469877,84.45986024096379,515,Aurangabad,3701282,1430936,1072901,23258,589477,551789,92.0,68.0
Maharashtra,Aurangabad,20.0979228832952,75.32072196796334,235,Aurangabad,2540073,868733,597269,2362,44456,428291,93.0,58.0
Maharashtra,Aurangabad,20.0979228832952,75.32072196796334,515,Aurangabad,3701282,1430936,1072901,23258,589477,551789,92.0,68.0
Bihar,Banka,24.832355642023337,86.8664916342413,225,Banka,2034763,590961,374360,1704,62359,425604,91.0,47.0
Bihar,Begusarai,25.54302613168723,86.12560144032932,222,Begusarai,2970541,918507,630166,4644,120373,594377,89.0,52.0
Bihar,Bhagalpur,25.277192885375477,87.04213814229242,224,Bhagalpur,3037766,937669,635397,6764,174534,522527,88.0,52.0
Bihar,Bhojpur,25.50666439393939,84.49407803030304,231,Bhojpur,2728407,973486,625665,3661,62153,434559,91.0,59.0
Bihar,Buxar,25.48593018867924,84.08808081760995,232,Buxar,1706352,593544,396263,1784,46760,299252,92.0,58.0
Bihar,Darbhanga,26.146187719298258,85.97387352472099,215,Darbhanga,3937385,1125566,691068,6280,127442,907174,91.0,46.0
Bihar,Gaya,24.7266541547278,84.94291217765044,236,Gaya,4391418,1368803,928810,6856,112617,696289,94.0,52.0
Bihar,Gopalganj,26.44874364161851,84.34636127167629,217,Gopalganj,2562012,793905,589093,3707,69375,515925,102.0,54.0
Bihar,Jamui,24.78418380462726,86.26316298200514,238,Jamui,1760405,534385,324203,1839,32633,325909,92.0,49.0
Bihar,Jehanabad,25.155679045643165,84.9208124481328,239,Jehanabad,1125313,374412,244469,1106,27641,186660,92.0,55.0
Bihar,Katihar,25.56565356037151,87.70466083591326,212,Katihar,3071029,762256,517934,2941,60900,668232,92.0,42.0
Bihar,Khagaria,25.53558891454964,86.56593256351037,223,Khagaria,1666886,461153,306875,1580,40641,373696,89.0,46.0
Bihar,Kishanganj,26.324336758321294,87.95045007235886,210,Kishanganj,1690400,439921,305135,1093,58718,401793,95.0,44.0
Bihar,Lakhisarai,25.183449321266963,86.12825701357468,227,Lakhisarai,1000912,305182,202088,1186,44491,175882,90.0,51.0
Bihar,Madhepura,25.77341929460581,86.8978443983403,213,Madhepura,2001762,517666,316911,1397,23236,486278,91.0,42.0
Bihar,Madhubani,26.41380538172716,86.16328360450552,207,Madhubani,4487379,1340085,815253,5319,113281,1047552,93.0,48.0
Bihar,Munger,25.198537962962963,86.54173672839504,226,Munger,1367765,473741,328076,2653,90461,222281,88.0,59.0
Bihar,Muzaffarpur,26.18664417177915,85.32745092024543,216,Muzaffarpur,4801062,1487117,1022115,10290,180651,998694,90.0,52.0
Bihar,Nalanda,25.229345508982053,85.48053113772461,229,Nalanda,2877653,919558,600375,4156,101378,514141,92.0,53.0
Bihar,Nawada,24.825708836206903,85.61594568965519,237,Nawada,2219146,659474,431538,1841,31162,379551,94.0,49.0
Bihar,Pashchim Champaran,27.16064352201258,84.30265911949685,203,Pashchim Champaran,3935042,1091226,668255,3495,57546,839514,91.0,45.0
Bihar,Patna,25.40297114503818,85.3198433587787,230,Patna,5838465,2028047,1431632,40692,546859,657991,90.0,59.0
Bihar,Purba Champaran,26.68129336734693,85.00382155612242,204,Purba Champaran,5099371,1407603,869354,7719,74979,1142260,90.0,45.0
Bihar,Purnia,25.81714801901739,87.40447606973065,211,Purnia,3264619,805261,527065,4170,86058,712847,92.0,41.0
Bihar,Rohtas,24.99170460829495,83.9350762672811,234,Rohtas,2959918,1061783,738049,4594,114893,512383,92.0,61.0
Bihar,Saharsa,25.821270696721303,86.54670819672135,214,Saharsa,1900661,506374,298622,1668,41342,432651,91.0,42.0
Bihar,Samastipur,25.793205563909765,85.94833323308269,221,Samastipur,4261566,1293575,849305,5379,88021,1012979,91.0,50.0
Bihar,Saran,25.89656077844312,84.82266287425155,219,Saran,3951862,1285767,871687,4509,94787,701323,95.0,55.0
Bihar,Sheikhpura,25.12472436548223,85.77839390862943,228,Sheikhpura,636342,196431,132245,631,20065,108293,93.0,52.0
Bihar,Sheohar,26.458380748663107,85.29539411764709,205,Sheohar,656246,171645,112053,478,10004,158484,89.0,43.0
Bihar,Sitamarhi,26.56570069686413,85.61172491289203,206,Sitamarhi,3423574,885188,551606,3460,66263,807294,90.0,42.0
Bihar,Siwan,26.1736372013652,84.33766552901022,218,Siwan,3330464,1115906,814269,3834,52935,632514,99.0,58.0
Bihar,Supaul,26.28157893772896,86.78496465201461,208,Supaul,2229076,647672,385611,1845,51028,572287,93.0,46.0
Bihar,Vaishali,25.8134703180212,85.39247597173153,220,Vaishali,3495021,1152576,774164,4810,70001,699317,89.0,55.0
Chandigarh,Chandigarh,30.7426,76.75872465753424,55,Chandigarh,1055450,465346,340092,44283,231204,8911,82.0,76.0
Chhattisgarh,Bastar,19.393866751269048,81.52895126903546,414,Bastar,1413199,382335,268528,1782,157646,316425,102.0,46.0
Chhattisgarh,Bilaspur,22.356942982456143,81.99770350877188,30,Bilaspur,381956,155599,132021,1574,79146,152458,98.0,75.0
Chhattisgarh,Bilaspur,22.356942982456143,81.99770350877188,406,Bilaspur,2663629,932474,664086,8566,519704,549632,97.0,60.0
Himachal Pradesh,Bilaspur,31.3780422907489,76.65316079295157,30,Bilaspur,381956,155599,132021,1574,79146,152458,98.0,75.0
Himachal Pradesh,Bilaspur,31.3780422907489,76.65316079295157,406,Bilaspur,2663629,932474,664086,8566,519704,549632,97.0,60.0
Chhattisgarh,Dhamtari,20.554912627291245,81.7569195519348,412,Dhamtari,799781,303924,242909,1016,148926,168689,101.0,68.0
Chhattisgarh,Durg,21.194463849287164,81.33181639511197,409,Durg,3343872,1284612,1018766,16141,614109,533448,99.0,69.0
Chhattisgarh,Jashpur,22.77286167664669,83.8703962075848,402,Jashpur,851669,280656,214759,567,76783,205670,101.0,58.0
Chhattisgarh,Korba,22.491712499999995,82.57604326923074,404,Korba,1206640,433391,315368,4544,202380,206598,97.0,62.0
Chhattisgarh,Koriya,23.50412776859501,82.12515636363635,400,Koriya,658917,229923,167900,1667,80023,121852,97.0,60.0
Chhattisgarh,Mahasamund,21.223727037773354,82.65925427435384,411,Mahasamund,1032754,364089,273874,961,212487,274793,102.0,62.0
Chhattisgarh,Raigarh,22.008265068493166,83.27797698630134,403,Raigarh,1493984,542756,408883,3342,297308,354278,99.0,64.0
Chhattisgarh,Raigarh,22.008265068493166,83.27797698630134,520,Raigarh,2634200,1059692,880302,38570,547206,581868,96.0,74.0
Maharashtra,Raigarh,18.453257637845976,73.0090609418579,403,Raigarh,1493984,542756,408883,3342,297308,354278,99.0,64.0
Maharashtra,Raigarh,18.453257637845976,73.0090609418579,520,Raigarh,2634200,1059692,880302,38570,547206,581868,96.0,74.0
Chhattisgarh,Raipur,20.88603153846152,82.20032759615388,410,Raipur,4063872,1493158,1136591,20261,728556,673499,98.0,65.0
Chhattisgarh,Surguja,23.32719278728607,83.23582493887531,401,Surguja,2359886,694686,493255,2737,253131,525596,98.0,50.0
Daman and Diu,Daman,20.431616666666677,72.8392366071429,495,Daman,191173,104316,46032,1316,49249,10006,53.0,79.0
Daman and Diu,Junagadh,20.72568199498111,70.83985639899612,479,Junagadh,2743082,1046981,795837,6628,498326,489237,95.0,67.0
Gujarat,Junagadh,20.929523011609785,70.54733890140345,479,Junagadh,2743082,1046981,795837,6628,498326,489237,95.0,67.0
Goa,North Goa,15.548723418714054,73.80667997909038,585,North Goa,818008,351738,311322,23440,173951,115859,96.0,81.0
Goa,South Goa,15.195278658183785,73.941792596877,586,South Goa,640537,264085,238342,17624,138810,88620,99.0,78.0
Gujarat,Ahmadabad,22.605425564971743,72.23898135593227,474,Ahmadabad,7214225,3025463,2410297,126341,1456046,353169,90.0,75.0
Gujarat,Amreli,21.04832649310872,71.43457637825426,480,Amreli,1514190,558180,437279,2538,273331,313714,96.0,66.0
Gujarat,Anand,22.282718206229863,72.57782051557454,482,Anand,2092745,874481,676772,9902,378310,413078,92.0,74.0
Gujarat,Banas Kantha,24.258538965517253,71.93205252873561,469,Banas Kantha,3120506,1048402,656521,3424,396873,666773,94.0,55.0
Gujarat,Bharuch,21.75787276237761,72.67326346710801,488,Bharuch,1551019,623047,495229,10257,309091,300677,93.0,72.0
Gujarat,Bhavnagar,21.70219390341736,72.16272632761141,481,Bhavnagar,2880365,1087371,799884,7297,500757,387251,93.0,66.0
Gujarat,Gandhinagar,23.193679790026252,72.67221679790026,473,Gandhinagar,1391753,582686,447808,12107,262539,237624,92.0,74.0
Gujarat,Jamnagar,22.410600414263328,69.62062005768233,477,Jamnagar,2160119,795140,601394,11573,386538,347158,94.0,65.0
Gujarat,Kachchh,23.48057203301311,68.82192301497916,468,Kachchh,2092371,739239,513080,9631,403294,488293,91.0,60.0
Gujarat,Kheda,22.88765312500002,73.018803515625,483,Kheda,2299885,942480,717763,5710,372226,461479,94.0,72.0
Gujarat,Mahesana,23.529355452865065,72.45545194085031,471,Mahesana,2035064,847499,655146,7759,385609,476005,93.0,74.0
Gujarat,Narmada,21.70666386292833,73.68403208722742,487,Narmada,590297,211767,158569,576,101940,138121,96.0,63.0
Gujarat,Navsari,20.866973318871995,72.86184869848157,490,Navsari,1329672,539471,462438,6726,267679,267739,96.0,75.0
Gujarat,Panch Mahals,22.80435606837605,73.61984598290586,484,Panch Mahals,2390776,858054,582751,3456,398937,463363,95.0,60.0
Gujarat,Patan,23.80634198473284,71.75162977099237,470,Patan,1343734,494631,343282,2231,223424,301483,94.0,62.0
Gujarat,Porbandar,21.55092351651571,69.71896987722886,478,Porbandar,585449,221621,172057,1653,117040,96015,95.0,67.0
Gujarat,Rajkot,22.40603377715488,70.83679439383323,476,Rajkot,3804558,1514075,1210981,21785,747352,459474,93.0,72.0
Gujarat,Sabar Kantha,23.71803594548552,73.13638790459964,472,Sabar Kantha,2428589,918625,660109,5262,438606,544024,95.0,65.0
Gujarat,Surat,21.25761372772093,72.93488716344339,492,Surat,6081322,2687468,1883942,55694,1252452,369840,79.0,75.0
Gujarat,Surendranagar,22.82672007299272,71.48358740875906,475,Surendranagar,1756268,643221,450405,2975,302068,340788,93.0,62.0
Gujarat,The Dangs,20.801633877551023,73.6883518367347,489,The Dangs,228291,77314,63654,137,29794,52102,101.0,62.0
Gujarat,Vadodara,22.26133739279589,73.49433010291594,486,Vadodara,4165626,1614087,1278993,53606,798277,547454,93.0,69.0
Gujarat,Valsad,20.44238231644259,72.9148584798345,491,Valsad,1705678,655528,515129,11020,329218,262410,92.0,69.0
Haryana,Ambala,30.3503672316384,76.94970310734456,70,Ambala,1128350,461288,356737,12899,199681,175365,88.0,72.0
Haryana,Bhiwani,28.728868064516128,76.02110225806452,81,Bhiwani,1634445,643158,426713,5292,266244,357047,89.0,65.0
Haryana,Faridabad,28.14873109756098,77.32718536585368,88,Faridabad,1809733,734940,537799,43437,333171,87700,87.0,70.0
Haryana,Fatehabad,29.57298318584072,75.54608716814157,78,Fatehabad,942011,327471,230107,3210,153301,203020,90.0,59.0
Haryana,Gurgaon,28.043894789579163,77.01935130260523,86,Gurgaon,1514432,638666,472450,67087,305751,141703,85.0,73.0
Haryana,Hisar,29.23628731117825,75.84324682779452,80,Hisar,1743931,670200,444111,10132,285004,302013,87.0,64.0
Haryana,Jhajjar,28.59651868131869,76.61137142857145,83,Jhajjar,958405,399480,276611,5034,168558,211816,86.0,71.0
Haryana,Jind,29.45149821958457,76.29598575667653,77,Jind,1334152,502049,330709,5263,222462,278335,87.0,62.0
Haryana,Kaithal,29.96068539094649,76.37698930041155,73,Kaithal,1074304,385782,260747,3724,187349,231091,88.0,60.0
Haryana,Karnal,29.703200647249204,76.87488025889972,74,Karnal,1505324,564516,413497,11163,267223,292682,89.0,65.0
Haryana,Kurukshetra,30.05652659846548,76.78774680306903,72,Kurukshetra,964655,370828,276065,7356,171908,203553,89.0,67.0
Haryana,Mahendragarh,28.1352161458333,76.14018072916659,84,Mahendragarh,922088,380440,249815,2624,135455,223726,89.0,68.0
Haryana,Panchkula,30.700897142857134,76.97173238095236,69,Panchkula,561293,229862,175456,18615,103455,70895,87.0,72.0
Haryana,Panipat,29.34352134146342,76.92895914634147,75,Panipat,1205437,464136,322463,10024,209965,173502,86.0,65.0
Haryana,Rewari,28.19164714828897,76.55956007604564,85,Rewari,900332,375453,261494,5121,152651,199449,90.0,71.0
Haryana,Rohtak,28.892517647058817,76.53123235294117,82,Rohtak,1061204,436025,311557,8482,193120,175203,87.0,70.0
Haryana,Sirsa,29.63583446327684,74.90970480225988,79,Sirsa,1295189,456968,325929,6287,215527,245476,90.0,60.0
Himachal Pradesh,Chamba,32.66741814595661,76.39354063116366,23,Chamba,519080,186064,137778,1615,96082,186395,99.0,62.0
Himachal Pradesh,Hamirpur,31.67668481012659,76.49767088607594,28,Hamirpur,454768,180555,177536,2521,104120,196116,110.0,79.0
Himachal Pradesh,Hamirpur,31.67668481012659,76.49767088607594,168,Hamirpur,1104285,408125,245174,1196,55929,256081,86.0,59.0
Uttar Pradesh,Hamirpur,25.738158381502892,79.82619479768789,28,Hamirpur,454768,180555,177536,2521,104120,196116,110.0,79.0
Uttar Pradesh,Hamirpur,25.738158381502892,79.82619479768789,168,Hamirpur,1104285,408125,245174,1196,55929,256081,86.0,59.0
Himachal Pradesh,Kangra,32.14093603238864,76.41205910931173,24,Kangra,1510075,606443,546197,8053,330081,588321,101.0,76.0
Himachal Pradesh,Kinnaur,31.60667184065933,78.51613736263741,34,Kinnaur,84121,36697,24002,354,17865,44514,82.0,72.0
Himachal Pradesh,Kullu,31.90911922077925,77.40922649350647,26,Kullu,437903,174550,133122,2623,91322,167995,94.0,70.0
Himachal Pradesh,Mandi,31.635805940594054,76.96556930693067,27,Mandi,999777,393669,330078,5333,214491,431129,101.0,72.0
Himachal Pradesh,Shimla,31.155725451807253,77.62573042168668,33,Shimla,814010,342846,269796,9177,172754,279269,92.0,75.0
Himachal Pradesh,Sirmaur,30.682764453961443,77.43184689507493,32,Sirmaur,529855,205617,157028,2220,91509,171102,92.0,68.0
Himachal Pradesh,Solan,31.03864311926604,76.94442140672783,31,Solan,580320,244372,184206,5250,119866,192787,88.0,74.0
Himachal Pradesh,Una,31.58330388349513,76.18353932038836,29,Una,521173,213281,186434,2412,105929,185091,98.0,77.0
Jammu and Kashmir,Doda,33.359614675767915,76.07163720136518,16,Doda,409936,138620,80463,596,61831,122267,92.0,53.0
Jammu and Kashmir,Jammu,32.713199095022645,74.8477520361991,21,Jammu,1529958,641916,495219,19905,294739,254566,88.0,74.0
Jammu and Kashmir,Kargil,33.565994894894914,76.63675315315312,4,Kargil,140802,56301,29935,235,15824,40370,81.0,61.0
Jammu and Kashmir,Kathua,32.51781678321678,75.58901398601404,7,Kathua,616435,228499,160705,1443,109422,181374,89.0,63.0
Jammu and Kashmir,Pulwama,33.88414418604652,75.00921860465118,12,Pulwama,560440,178326,115632,1537,73629,147520,91.0,52.0
Jammu and Kashmir,Punch,33.791241290322574,74.29593161290322,5,Punch,476835,163333,98391,346,62900,132139,89.0,55.0
Jammu and Kashmir,Srinagar,34.27312898550724,75.11021159420288,10,Srinagar,1236829,431746,316838,16413,165403,4518,90.0,61.0
Jammu and Kashmir,Udhampur,33.04770670731707,75.15286951219511,19,Udhampur,554985,197543,124811,1214,73999,148664,87.0,58.0
Jharkhand,Bokaro,23.6814965034965,85.98398374125864,355,Bokaro,2062330,759088,514432,9754,274726,250312,92.0,62.0
Jharkhand,Chatra,24.11619945750453,84.93295804701627,347,Chatra,1042886,303902,206159,590,27037,200974,95.0,49.0
Jharkhand,Deoghar,24.33070100755672,86.75697632241814,350,Deoghar,1492073,489837,303701,1944,130193,257373,93.0,53.0
Jharkhand,Dhanbad,23.854509090909097,86.40372924901185,354,Dhanbad,2684487,1014950,707254,11568,427173,258764,91.0,64.0
Jharkhand,Dumka,24.275006125574265,87.27662450229711,362,Dumka,1321442,406275,266134,1193,62110,303697,98.0,51.0
Jharkhand,Garhwa,24.082114689265527,83.68664265536722,346,Garhwa,1322784,405161,248315,565,29373,272872,94.0,49.0
Jharkhand,Giridih,24.30578509874329,86.08710915619386,349,Giridih,2445474,783736,469739,1944,125431,452564,94.0,51.0
Jharkhand,Godda,24.8189,87.2941735483871,351,Godda,1313551,376212,228307,874,43230,276454,94.0,46.0
Jharkhand,Gumla,23.078532948929148,84.55056787479396,366,Gumla,1025213,321795,237925,831,31687,216629,99.0,55.0
Jharkhand,Jamtara,23.97873318077801,86.95325080091534,363,Jamtara,791042,258260,168052,808,49419,165555,95.0,54.0
Jharkhand,Latehar,23.72511185840708,84.48298743362837,359,Latehar,726978,209706,140976,340,38194,146377,97.0,48.0
Jharkhand,Lohardaga,23.488796043165483,84.6605169064748,356,Lohardaga,461790,149568,110139,351,28769,96759,99.0,56.0
Jharkhand,Pakur,24.57260428082189,87.69691969178076,353,Pakur,900422,206989,145892,328,31414,200588,99.0,39.0
Jharkhand,Palamu,24.196925968109337,84.20310842824594,358,Palamu,1939869,621706,402857,2155,68238,355529,93.0,53.0
Jharkhand,Ranchi,23.184235061391547,85.31781937244203,364,Ranchi,2914253,1085244,826189,22538,350908,420740,95.0,66.0
Jharkhand,Sahibganj,24.93667989690721,87.68264097938142,352,Sahibganj,1150567,287303,195960,591,34879,223450,95.0,42.0
Jharkhand,Simdega,22.608760391198054,84.59193691931536,367,Simdega,599578,191991,151492,423,16865,144169,100.0,57.0
Karnataka,Bagalkot,16.15860676328503,75.64526070853468,556,Bagalkot,1889752,641388,472024,3745,301389,324799,99.0,59.0
Karnataka,Bangalore Rural,12.936827087794448,77.47369314775169,583,Bangalore Rural,990923,385311,303438,3729,214253,231052,95.0,70.0
Karnataka,Belgaum,16.16107219152853,74.72329042357275,555,Belgaum,4779661,1725548,1326484,17560,808827,962777,97.0,64.0
Karnataka,Bellary,15.074377548209377,76.47228471074374,565,Bellary,2452595,813440,608181,9626,440374,371604,98.0,58.0
Karnataka,Bidar,17.950361730769224,77.19459961538459,558,Bidar,1703300,597198,445475,3971,271439,287134,96.0,61.0
Karnataka,Bijapur,16.84015316666667,75.95909166666665,417,Bijapur,255230,54076,32843,117,12516,50449,98.0,34.0
Karnataka,Bijapur,16.84015316666667,75.95909166666665,557,Bijapur,2177331,730566,517702,4987,326594,396449,96.0,57.0
Karnataka,Chikmagalur,13.425288289676422,75.67626502311249,570,Chikmagalur,1137961,438257,380088,4510,238505,311660,101.0,72.0
Karnataka,Chitradurga,14.29102220394736,76.57821957236843,566,Chitradurga,1659456,607188,480204,5711,307257,349704,97.0,66.0
Karnataka,Davanagere,14.330414586709884,75.91723841166937,567,Davanagere,1945497,720637,587903,7320,372671,354680,97.0,67.0
Karnataka,Dharwad,15.343831376975173,75.13831264108359,562,Dharwad,1847023,711776,589888,15013,347962,199707,97.0,70.0
Karnataka,Gadag,15.507128256880746,75.64861302752298,561,Gadag,1064570,397178,302999,3373,198064,180066,98.0,66.0
Karnataka,Gulbarga,17.070459515951594,76.87503850385033,579,Gulbarga,2566326,828359,599009,9752,404767,400704,97.0,56.0
Karnataka,Hassan,12.945098749999998,76.11049549999997,574,Hassan,1776421,668836,556420,4851,400702,496103,101.0,69.0
Karnataka,Haveri,14.737582809224318,75.3961230607966,564,Haveri,1597668,603793,481650,2456,295937,315076,95.0,68.0
Karnataka,Kodagu,12.39684468085106,75.79336595744688,576,Kodagu,554519,215302,197575,3308,113931,181182,102.0,74.0
Karnataka,Kolar,13.312799881235172,78.01376947743476,581,Kolar,1536401,564110,452109,5051,309494,326567,98.0,66.0
Karnataka,Koppal,15.651253271028034,76.1617048598131,560,Koppal,1389920,468785,340300,2135,223166,272968,99.0,58.0
Karnataka,Mandya,12.574901806239744,76.81570098522172,573,Mandya,1805769,638668,510981,3367,391033,458867,100.0,64.0
Karnataka,Mysore,12.248100259403367,76.52881802853437,577,Mysore,3001127,1063766,898414,28397,640868,540596,99.0,65.0
Karnataka,Raichur,16.050795353982295,76.87368606194688,559,Raichur,1928812,577213,402556,5200,314547,330446,100.0,51.0
Karnataka,Shimoga,14.063845885634592,75.17882078103197,568,Shimoga,1752753,674938,588078,8791,363835,352444,100.0,72.0
Karnataka,Tumkur,13.592467760074973,77.02297966260545,571,Tumkur,2678980,1006024,807367,7971,562769,685443,98.0,68.0
Karnataka,Udupi,13.450404228534568,74.72009990316337,569,Udupi,1177361,465704,460725,9070,224814,269817,109.0,79.0
Kerala,Alappuzha,9.542602965599087,76.38010796263319,598,Alappuzha,2127789,890552,962245,28842,507913,331419,110.0,87.0
Kerala,Ernakulam,10.004879301987431,76.26957729035381,595,Ernakulam,3282388,1425723,1429953,88737,771287,369694,103.0,87.0
Kerala,Idukki,9.80480963855423,77.04586641566264,596,Idukki,1108974,471881,451129,8250,244844,391610,101.0,83.0
Kerala,Kannur,11.941523076923056,75.35209891725934,589,Kannur,2523003,1012956,1125478,32653,511167,306288,114.0,85.0
Kerala,Kasaragod,12.33310309912974,75.07768497134369,588,Kasaragod,1307375,516476,521016,10378,237670,251641,108.0,79.0
Kerala,Kollam,8.929388820570157,76.6360775852431,600,Kollam,2635375,1074345,1165928,31542,630767,523715,111.0,85.0
Kerala,Kottayam,9.643701174068417,76.46059673302705,597,Kottayam,1974551,861592,888206,37849,464039,481967,104.0,89.0
Kerala,Kozhikode,11.392924270557026,75.71158720159153,591,Kozhikode,3086293,1266939,1348504,36791,641660,323793,110.0,85.0
Kerala,Malappuram,10.97329875666072,75.93910775606876,592,Malappuram,4112920,1597404,1713911,27909,730119,634543,110.0,81.0
Kerala,Palakkad,10.784926903553291,76.49980490693744,593,Palakkad,2809934,1122600,1116892,27162,587583,665899,107.0,80.0
Kerala,Thiruvananthapuram,8.537101759082221,76.88711502868073,601,Thiruvananthapuram,3301427,1354857,1430551,71621,783872,559293,109.0,84.0
Kerala,Thrissur,10.458932647907687,76.12321940836945,594,Thrissur,3121200,1282261,1396287,56148,721625,336748,111.0,86.0
Kerala,Wayanad,11.715277464788736,76.07587007042254,590,Wayanad,817420,328136,317449,4712,149864,266183,103.0,79.0
Madhya Pradesh,Anuppur,23.18184220430107,81.86560000000007,461,Anuppur,749237,254120,182475,1290,81338,147388,98.0,58.0
Madhya Pradesh,Ashoknagar,24.63098846153845,77.82974493927134,459,Ashoknagar,845071,290304,178805,619,84720,169606,90.0,56.0
Madhya Pradesh,Balaghat,21.80020720640569,80.42170053380796,457,Balaghat,1701698,626468,521155,1712,277927,400074,102.0,67.0
Madhya Pradesh,Barwani,21.702135714285724,74.91004719710673,441,Barwani,1385881,313642,236284,1158,181139,250358,98.0,40.0
Madhya Pradesh,Betul,21.964626315789477,77.7873428189117,447,Betul,1575362,529783,409986,2109,230974,318945,97.0,60.0
Madhya Pradesh,Bhind,26.35951126187245,78.7618324287653,420,Bhind,1703005,676513,418404,1166,107819,271211,84.0,64.0
Madhya Pradesh,Bhopal,23.480726143790854,77.39246623093679,444,Bhopal,2371061,920314,740376,40788,452912,118893,92.0,70.0
Madhya Pradesh,Burhanpur,21.364567254408065,76.24460478589425,467,Burhanpur,757847,233073,175606,986,112420,115979,95.0,54.0
Madhya Pradesh,Chhatarpur,24.813637376460004,79.56449299191374,425,Chhatarpur,1762375,572010,371023,1880,176056,375869,88.0,54.0
Madhya Pradesh,Chhindwara,22.227966971713823,78.76413136439254,455,Chhindwara,2090922,731294,562904,3588,344875,413142,96.0,62.0
Madhya Pradesh,Damoh,23.76624407960196,79.47049303482588,428,Damoh,1264219,445737,301978,1432,187731,303387,91.0,59.0
Madhya Pradesh,Datia,25.90226439560441,78.63916571428574,422,Datia,786754,303815,187630,616,97696,160453,87.0,62.0
Madhya Pradesh,Dewas,22.7851110021322,76.46088805970157,437,Dewas,1563715,550716,374653,3518,270457,274995,94.0,59.0
Madhya Pradesh,Dhar,22.572681718963157,75.1105620736698,438,Dhar,2185793,638479,438859,2388,349639,412348,96.0,49.0
Madhya Pradesh,Dindori,22.83738437047757,81.04332966714911,453,Dindori,704524,222759,155955,554,62372,218021,100.0,54.0
Madhya Pradesh,Guna,24.49043927178156,77.2235895968791,458,Guna,1241519,400537,253443,2482,144248,212765,91.0,53.0
Madhya Pradesh,Gwalior,26.04074441964285,78.12782433035713,421,Gwalior,2032036,803114,554096,15779,306859,172720,86.0,67.0
Madhya Pradesh,Harda,22.227659781121783,77.07022571819435,448,Harda,570465,203807,148743,986,95066,112714,93.0,62.0
Madhya Pradesh,Hoshangabad,22.595268801996703,78.02168094841929,449,Hoshangabad,1241350,469199,341445,2871,198076,209650,91.0,65.0
Madhya Pradesh,Indore,22.680265752128648,75.9133801324502,439,Indore,3276697,1289631,1019499,48691,593576,200371,93.0,70.0
Madhya Pradesh,Jabalpur,23.18525572327043,79.98328754716981,451,Jabalpur,2463289,980307,776161,20443,452023,272284,93.0,71.0
Madhya Pradesh,Jhabua,22.419578015397768,74.40921616766468,464,Jhabua,1025048,214582,137499,744,125411,211080,99.0,34.0
Madhya Pradesh,Katni,23.724416229116937,80.33819665871127,450,Katni,1292042,460583,330190,2179,172416,276151,95.0,61.0
Madhya Pradesh,Mandla,22.70348712446353,80.38600543633753,454,Mandla,1054905,348033,256929,912,143803,279674,101.0,57.0
Madhya Pradesh,Mandsaur,24.19278764044944,75.43588667736759,433,Mandsaur,1340411,502898,331693,2324,239885,302287,96.0,62.0
Madhya Pradesh,Morena,26.37313504531724,77.88447341389724,419,Morena,1965970,747652,432033,1781,131486,319298,84.0,60.0
Madhya Pradesh,Neemuch,24.70311893333336,75.06608186666664,432,Neemuch,826067,307889,200945,1945,145258,174235,95.0,62.0
Madhya Pradesh,Panna,24.451325840092657,80.21133001158752,426,Panna,1016520,332140,220419,653,76097,256744,91.0,54.0
Madhya Pradesh,Raisen,23.292518206521724,78.16305495923909,446,Raisen,1331597,479093,341127,1141,194373,251272,90.0,62.0
Madhya Pradesh,Rajgarh,23.785499026425583,76.66431223922116,442,Rajgarh,1545814,488797,315448,1611,231130,331894,96.0,52.0
Madhya Pradesh,Ratlam,23.503562290502792,75.14895782122909,434,Ratlam,1455069,485090,340790,3644,213825,266716,97.0,57.0
Madhya Pradesh,Rewa,24.861184625158856,81.57572465057183,430,Rewa,2365106,845572,596185,3406,251132,523910,93.0,61.0
Madhya Pradesh,Sagar,23.800318709677374,78.71940357771273,427,Sagar,2378458,908607,637112,4546,366494,448408,89.0,65.0
Madhya Pradesh,Satna,24.62777621776502,80.75547048710598,429,Satna,2228935,801051,570730,3754,294702,461831,93.0,62.0
Madhya Pradesh,Sehore,22.9297199679658,77.06780202883085,445,Sehore,1311332,469208,311154,1566,212138,270427,92.0,60.0
Madhya Pradesh,Seoni,22.33230487804874,79.66053863928111,456,Seoni,1379131,485341,378853,1182,228695,335045,98.0,63.0
Madhya Pradesh,Shahdol,23.44859864559819,81.4596831828442,460,Shahdol,1066063,348761,255433,1733,113184,233594,97.0,57.0
Madhya Pradesh,Shajapur,23.566620317220547,76.33555181268885,436,Shajapur,1512681,543509,351103,1382,232735,312611,94.0,59.0
Madhya Pradesh,Sheopur,25.78014810996563,77.16911116838484,418,Sheopur,687861,208201,119824,273,74770,150146,90.0,48.0
Madhya Pradesh,Shivpuri,25.37802451874367,77.74861600810549,423,Shivpuri,1726050,573242,327604,1852,148128,367859,88.0,52.0
Madhya Pradesh,Sidhi,24.17547189952905,82.1053783359498,462,Sidhi,1127033,353030,247755,837,102228,250953,96.0,53.0
Madhya Pradesh,Tikamgarh,25.14099852104666,78.89357064846428,424,Tikamgarh,1445166,459353,288587,1090,132725,322772,90.0,52.0
Madhya Pradesh,Ujjain,23.319288862745065,75.80383717647058,435,Ujjain,1986864,730817,510173,7501,323379,300765,96.0,62.0
Madhya Pradesh,Umaria,23.59601063063061,80.90879477477475,431,Umaria,644758,210907,145765,839,67975,138100,95.0,55.0
Madhya Pradesh,Vidisha,23.82838307984792,77.9013507604563,443,Vidisha,1458875,512344,350574,1926,181510,292579,90.0,59.0
Maharashtra,Akola,20.746310479041902,77.12122320359276,501,Akola,1813906,758977,652304,6163,314490,308158,95.0,78.0
Maharashtra,Amravati,21.16520991810736,77.67583503184723,503,Amravati,2888445,1207104,1044771,9438,512492,508921,95.0,78.0
Maharashtra,Bhandara,21.211792649727748,80.10950199637024,506,Bhandara,1200334,488709,411151,2932,227025,283843,98.0,75.0
Maharashtra,Bid,18.952353340080982,75.69319706477731,523,Bid,2585049,987185,731322,5614,402052,563114,92.0,66.0
Maharashtra,Buldana,20.56680611183355,76.39017880364096,500,Buldana,2586258,1048892,830982,4767,423036,575405,93.0,73.0
Maharashtra,Chandrapur,20.095609090909075,79.31556380471388,509,Chandrapur,2204307,872565,706050,8239,418666,451324,96.0,72.0
Maharashtra,Dhule,21.274018690400517,74.58719071837263,498,Dhule,2050862,723388,570528,6065,315332,382777,95.0,63.0
Maharashtra,Gondiya,21.225008411214997,80.17522698598128,507,Gondiya,1322507,542837,461406,2866,239981,319702,100.0,76.0
Maharashtra,Hingoli,19.59525302245251,77.09239412780653,512,Hingoli,1177345,450551,340192,1221,159114,242456,94.0,67.0
Maharashtra,Jalgaon,20.8828943415638,75.55140421810695,499,Jalgaon,4229917,1629223,1262659,14297,720791,796223,92.0,68.0
Maharashtra,Jalna,19.984612534818933,75.98473607242339,514,Jalna,1959046,699428,496095,3791,288895,404746,94.0,61.0
Maharashtra,Kolhapur,16.44881301587301,74.12897150793648,530,Kolhapur,3876001,1559760,1266085,22269,770005,796496,96.0,73.0
Maharashtra,Latur,18.348687268993856,76.75812607802874,524,Latur,2454196,932432,718240,6217,381722,428616,93.0,67.0
Maharashtra,Nagpur,21.196556862745105,79.02166176470584,505,Nagpur,4653570,1959220,1714588,57964,917626,430844,95.0,79.0
Maharashtra,Nanded,19.209316983017,77.6829048951049,511,Nanded,3361292,1255222,934203,7548,488748,591119,94.0,65.0
Maharashtra,Nandurbar,21.523175625248147,74.32638757443429,497,Nandurbar,1648295,512099,394410,2579,186202,333440,98.0,55.0
Maharashtra,Nashik,20.266912871287143,74.03824168316828,516,Nashik,6107187,2397538,1947828,45039,904710,904661,93.0,71.0
Maharashtra,Osmanabad,18.19459456066944,75.99495575313809,525,Osmanabad,1657576,644304,493506,3209,240042,367158,92.0,69.0
Maharashtra,Parbhani,19.31032425249168,76.70163338870431,513,Parbhani,1836086,666291,491523,3982,272486,293480,95.0,63.0
Maharashtra,Pune,18.51696171428573,74.12922881632647,521,Pune,9429408,3940210,3231513,235018,1925019,1165718,91.0,76.0
Maharashtra,Ratnagiri,17.210195070127703,73.25725893866404,528,Ratnagiri,1615069,619012,580380,7752,367352,538538,112.0,74.0
Maharashtra,Sangli,17.154930181086502,74.70713822937628,531,Sangli,2822143,1121550,927917,13212,485126,626872,97.0,73.0
Maharashtra,Satara,17.6737908974359,74.18052064102558,527,Satara,3003741,1201034,1024660,14093,562653,774522,99.0,74.0
Maharashtra,Sindhudurg,16.170948049777163,73.51329008172343,529,Sindhudurg,849651,348289,317778,3517,194228,295847,104.0,78.0
Maharashtra,Solapur,17.837357937584812,75.42394823609216,526,Solapur,4317756,1651266,1259410,15145,595560,779929,94.0,67.0
Maharashtra,Thane,19.698767747440264,72.79882742564581,517,Thane,11060148,4591396,3635765,256170,2231800,713994,89.0,74.0
Maharashtra,Wardha,20.80743024390242,78.57259105691062,504,Wardha,1300774,552617,466841,4313,266155,268486,95.0,78.0
Maharashtra,Washim,20.282282394366213,77.25502394366208,502,Washim,1197160,487703,382214,1875,196022,274925,93.0,73.0
Maharashtra,Yavatmal,20.04258346738159,78.05326371760479,510,Yavatmal,2772348,1115980,906594,6094,446516,629243,95.0,73.0
Manipur,Bishnupur,24.50712111801243,93.8246236024845,275,Bishnupur,237399,87313,69020,676,34364,34977,100.0,66.0
Manipur,Chandel,24.2635812987013,94.09443844155844,280,Chandel,144182,51053,39249,184,18764,30377,93.0,63.0
Manipur,Churachandpur,24.30309718875504,93.38671506024085,274,Churachandpur,274143,104013,91922,837,29894,52972,97.0,71.0
Manipur,Senapati,25.08465586034914,94.03366234413956,272,Senapati,479148,148012,116465,256,22798,38008,94.0,55.0
Manipur,Tamenglong,24.98312942238265,93.49450740072204,273,Tamenglong,140651,47403,37603,125,11541,23982,94.0,60.0
Manipur,Thoubal,24.545392553191498,93.97959893617023,276,Thoubal,422168,152617,116687,880,49507,65961,100.0,64.0
Manipur,Ukhrul,25.05900314960629,94.44129566929138,279,Ukhrul,183998,70148,59681,276,14026,36084,94.0,71.0
Meghalaya,East Garo Hills,25.82728228228228,90.64684924924916,294,East Garo Hills,317917,102513,89634,288,24550,62698,97.0,60.0
Meghalaya,East Khasi Hills,25.303763888888884,91.75922519841272,298,East Khasi Hills,825922,287270,290760,5032,135941,106248,101.0,70.0
Meghalaya,Jaintia Hills,25.33959557069844,92.37608160136298,299,Jaintia Hills,395124,87371,100156,510,41677,76546,101.0,47.0
Meghalaya,South Garo Hills,25.240568578553614,90.64560349127176,295,South Garo Hills,142334,45003,37059,179,10940,35930,95.0,58.0
Meghalaya,West Garo Hills,25.495285185185185,90.03709947089942,293,West Garo Hills,643291,193438,165264,1630,51301,139351,98.0,56.0
Meghalaya,West Khasi Hills,25.500889926739926,91.25364542124538,296,West Khasi Hills,383461,117307,113371,149,32873,74832,98.0,60.0
Mizoram,Aizawl,23.90781335453101,92.85359459459472,283,Aizawl,400309,169547,171048,4019,79804,20570,101.0,85.0
Mizoram,Champhai,23.54166580976866,93.24221799485862,284,Champhai,125745,51440,49362,186,23948,18395,98.0,80.0
Mizoram,Kolasib,24.2020004347826,92.73470391304348,282,Kolasib,83955,34147,31748,367,14853,9669,96.0,78.0
Mizoram,Lawngtlai,22.36102843137253,92.66964156862753,287,Lawngtlai,117894,36444,26417,162,9283,21993,95.0,53.0
Mizoram,Lunglei,23.007717036172675,92.63512555425892,286,Lunglei,161428,64515,56607,482,26394,21479,95.0,75.0
Mizoram,Mamit,23.73852942502819,92.4330803833147,281,Mamit,86364,32977,27214,90,12158,16726,93.0,70.0
Mizoram,Saiha,22.35744801061008,93.02827931034489,288,Saiha,56574,21861,20372,168,7400,7043,98.0,75.0
Mizoram,Serchhip,23.263864705882344,92.914158496732,285,Serchhip,64937,27598,26878,131,12315,7472,98.0,84.0
Nagaland,Dimapur,25.814176811594223,93.75074057971014,265,Dimapur,378811,150142,127895,3303,71413,49116,92.0,73.0
Nagaland,Kohima,25.60311428571428,93.78600657596373,270,Kohima,267988,107038,90451,1928,50724,31845,93.0,74.0
Nagaland,Mokokchung,26.478911764705888,94.522426006192,262,Mokokchung,194622,83479,76015,537,40154,37536,93.0,82.0
Nagaland,Mon,26.69207374301676,95.03072988826828,261,Mon,250260,67432,52194,178,14398,43607,90.0,48.0
Nagaland,Phek,25.63272986577182,94.56814563758392,266,Phek,163418,57926,47967,170,36182,38903,95.0,65.0
Nagaland,Tuensang,26.21104453280316,94.85809880715708,267,Tuensang,196596,63653,53858,155,24998,40690,93.0,60.0
Nagaland,Wokha,26.202611551155112,94.1990815181518,264,Wokha,166343,67385,60823,198,25268,38499,97.0,77.0
Nagaland,Zunheboto,26.028178205128206,94.50026666666668,263,Zunheboto,140757,53504,49377,261,28846,31267,98.0,73.0
Orissa,Baleshwar,21.48570932311624,87.08085828011933,377,Baleshwar,2320529,902359,718873,7370,296834,601154,96.0,70.0
Orissa,Bhadrak,20.95262735257214,86.81496204516931,378,Bhadrak,1506337,596269,497871,2637,164636,373862,98.0,73.0
Orissa,Cuttack,20.407640646029623,85.7776810228802,381,Cuttack,2624470,1103033,908436,15046,349587,579529,94.0,77.0
Orissa,Dhenkanal,20.79887159353349,85.53226836027711,383,Dhenkanal,1192811,464093,365817,1810,117172,315390,95.0,70.0
Orissa,Gajapati,19.121080882352945,84.14015091911759,389,Gajapati,577817,153663,108874,635,63112,152095,104.0,45.0
Orissa,Ganjam,19.2632617564534,84.80297710437702,388,Ganjam,3529031,1262652,947398,9049,405298,795476,98.0,63.0
Orissa,Jharsuguda,21.827058566978184,83.93581682242987,371,Jharsuguda,579505,228092,177787,2498,81433,103224,95.0,70.0
Orissa,Kalahandi,19.784253092783523,83.1124043814433,395,Kalahandi,1576869,484177,317859,1953,91171,456336,100.0,51.0
Orissa,Kandhamal,20.092878624813142,84.02216352765326,390,Kandhamal,733110,233900,165886,768,28736,218446,104.0,55.0
Orissa,Kendrapara,20.606319815982264,86.83763247572003,379,Kendrapara,1440361,579970,509295,1628,173107,414749,101.0,76.0
Orissa,Khordha,20.054162322274863,85.52234834123229,386,Khordha,2251673,957515,792421,35701,349860,331834,93.0,78.0
Orissa,Koraput,18.82627794779476,82.81278469846964,398,Koraput,1379647,340843,227247,3988,85766,381789,103.0,41.0
Orissa,Malkangiri,18.25227930367506,81.98293636363628,399,Malkangiri,613192,147001,97705,448,24604,167884,102.0,40.0
Orissa,Mayurbhanj,21.897621545157754,86.4030408052231,376,Mayurbhanj,2519738,794171,575226,2950,140189,689110,101.0,54.0
Orissa,Nayagarh,20.192895622119817,85.05614700460825,385,Nayagarh,962789,392333,296029,1163,124984,261646,92.0,71.0
Orissa,Nuapada,20.471309512195116,82.59152536585364,394,Nuapada,610382,180903,118480,757,43976,197258,102.0,49.0
Orissa,Puri,19.83509174603177,85.86698989898981,387,Puri,1698730,704857,587082,3416,201605,402014,96.0,76.0
Orissa,Rayagada,19.292840020060204,83.45860120361095,396,Rayagada,967911,241959,165776,1553,61543,237343,105.0,42.0
Orissa,Sambalpur,21.515752380952385,84.34958483245157,372,Sambalpur,1041099,393192,310499,5231,126498,220697,98.0,68.0
Orissa,Sundargarh,22.06354819277107,84.50524819277099,374,Sundargarh,2093437,750147,592175,12787,223537,387911,97.0,64.0
Puducherry,Karaikal,10.876161726078813,79.82369793621002,637,Karaikal,200222,79903,75013,1868,47880,35618,105.0,77.0
Puducherry,Mahe,12.006420793787758,75.28275021570326,636,Mahe,41816,16610,19860,574,7150,0,118.0,87.0
Puducherry,Yanam,16.707695652173904,82.26187304347832,634,Yanam,55626,19919,19355,207,12859,0,104.0,71.0
Punjab,Amritsar,31.548679820627772,74.79883856502238,49,Amritsar,2490656,932981,751789,29961,461231,275477,89.0,68.0
Punjab,Bathinda,30.190524611973352,75.05685898004438,46,Bathinda,1388525,488261,356607,11284,255650,218159,87.0,61.0
Punjab,Faridkot,30.591187250996025,74.79751553784862,45,Faridkot,617508,215767,165518,4348,113549,99946,89.0,62.0
Punjab,Fatehgarh Sahib,30.64290947368421,76.36208394736842,40,Fatehgarh Sahib,600163,238696,187337,5138,113683,117559,87.0,71.0
Punjab,Firozpur,30.63407535211269,74.40245732394365,43,Firozpur,2029074,707070,520441,10042,349662,348522,89.0,60.0
Punjab,Gurdaspur,32.04283371212125,75.3204064393939,35,Gurdaspur,2298323,907660,727059,14428,411216,420860,90.0,71.0
Punjab,Hoshiarpur,31.55157169811319,75.8469857442349,38,Hoshiarpur,1586625,637927,561772,13747,319930,422673,96.0,76.0
Punjab,Jalandhar,31.250336907216507,75.54400350515463,37,Jalandhar,2193590,882581,739956,39082,446200,330339,92.0,74.0
Punjab,Kapurthala,31.336592638036837,75.47641165644177,36,Kapurthala,815168,316254,260313,9732,161206,165433,91.0,71.0
Punjab,Ludhiana,30.76596397379912,75.83110851528383,41,Ludhiana,3498739,1428348,1131877,58589,703624,395032,87.0,73.0
Punjab,Mansa,29.919547714285724,75.4304922857143,47,Mansa,769751,244037,179523,2673,140099,145603,88.0,55.0
Punjab,Moga,30.756540067340065,75.1600845117845,42,Moga,995746,348549,279340,7897,183396,214295,89.0,63.0
Punjab,Muktsar,30.31243303303303,74.5518747747748,44,Muktsar,901896,300401,224447,4571,166585,149507,90.0,58.0
Punjab,Patiala,30.214540380693364,76.27505893949697,48,Patiala,1895686,711052,555739,24274,352929,299279,89.0,67.0
Punjab,Rupnagar,30.910937330754347,76.53743500967126,51,Rupnagar,684627,278534,224197,6600,129123,148162,92.0,73.0
Punjab,Sangrur,30.185045204336895,75.89437014178496,53,Sangrur,1655169,570413,431664,10736,305557,292156,89.0,61.0
Rajasthan,Ajmer,26.199300378787903,74.6990419191919,119,Ajmer,2583052,926268,600405,13499,393498,409335,95.0,59.0
Rajasthan,Alwar,27.55271738035265,76.65359630562563,104,Alwar,3674179,1359829,822647,9750,485723,782294,89.0,59.0
Rajasthan,Banswara,23.453642032967014,74.44246868131869,125,Banswara,1797485,513854,315489,2324,120603,390437,98.0,46.0
Rajasthan,Baran,24.98023243243244,76.86210651828291,128,Baran,1222755,432607,260700,1363,161310,249184,93.0,57.0
Rajasthan,Barmer,25.77070908045978,71.50297126436782,115,Barmer,2603751,783461,404861,2766,126494,542825,90.0,46.0
Rajasthan,Bharatpur,27.32411858037578,77.21752077244258,105,Bharatpur,2548462,943910,536959,4179,288723,479437,88.0,58.0
Rajasthan,Bhilwara,25.45119767759564,74.63947595628417,122,Bhilwara,2408523,777582,478544,6207,373644,530015,97.0,52.0
Rajasthan,Bikaner,28.12489068322981,73.26943322981371,101,Bikaner,2363937,782399,496402,7607,220793,335754,91.0,54.0
Rajasthan,Bundi,25.48580716049379,75.79984074074079,121,Bundi,1110906,371705,213339,1392,136969,239836,92.0,53.0
Rajasthan,Chittaurgarh,24.631623761665463,74.80010997846382,126,Chittaurgarh,1544338,514851,306974,4941,268172,366780,97.0,53.0
Rajasthan,Churu,28.29330375536484,74.65846427038629,102,Churu,2039547,696729,452540,2577,231696,344897,94.0,56.0
Rajasthan,Dausa,26.91234817629181,76.57342097264443,109,Dausa,1634409,596935,341116,1719,195277,361084,91.0,57.0
Rajasthan,Dhaulpur,26.72397054945053,77.74476219780222,106,Dhaulpur,1206516,435721,247377,1330,96086,214670,85.0,57.0
Rajasthan,Dungarpur,23.75104807692308,73.84765641025645,124,Dungarpur,1388552,415820,265771,1477,141275,322816,99.0,49.0
Rajasthan,Ganganagar,29.256785412667963,73.56192303262948,99,Ganganagar,1969168,710908,482435,6295,283142,397697,89.0,61.0
Rajasthan,Hanumangarh,29.1813351791531,74.74632573289902,100,Hanumangarh,1774692,624281,409855,3360,243163,389059,91.0,58.0
Rajasthan,Jaipur,27.033459290187885,75.77117286012533,110,Jaipur,6626178,2554793,1746172,76565,990085,754841,91.0,65.0
Rajasthan,Jaisalmer,26.86900838548185,71.18371877346682,114,Jaisalmer,669919,210415,98238,754,43141,159117,85.0,46.0
Rajasthan,Jalor,25.07578093797277,72.18647261724662,116,Jalor,1828730,543923,285659,1585,161845,419216,95.0,45.0
Rajasthan,Jhalawar,24.24725541474657,76.11242891705065,129,Jhalawar,1411129,466815,272977,1750,220428,298624,95.0,52.0
Rajasthan,Jhunjhunun,28.13517401247401,75.52840893970894,103,Jhunjhunun,2137045,815834,554526,4828,297559,500452,95.0,64.0
Rajasthan,Jodhpur,26.678460838536967,73.00450847457628,113,Jodhpur,3687165,1265753,765779,19335,408808,584215,92.0,55.0
Rajasthan,Karauli,26.51901555555556,76.96081818181815,107,Karauli,1458248,531904,273945,1059,132079,305047,86.0,55.0
Rajasthan,Kota,25.175718080000014,76.18618928000001,127,Kota,1951014,765396,532949,12843,339899,203454,91.0,67.0
Rajasthan,Nagaur,27.07862016048146,74.14215667001012,112,Nagaur,3307743,1102750,655874,4449,347344,675712,95.0,53.0
Rajasthan,Pali,25.80490393541874,73.55285640766907,118,Pali,2037573,667381,418312,4043,326793,512909,99.0,53.0
Rajasthan,Rajsamand,25.24894767441859,73.96570215946844,123,Rajsamand,1156597,383334,235805,1989,193276,304622,99.0,54.0
Rajasthan,Sawai Madhopur,26.251081180223288,76.4219283891548,108,Sawai Madhopur,1335551,486184,255564,1887,140947,282057,90.0,56.0
Rajasthan,Sikar,27.64644058641976,75.29317422839503,111,Sikar,2677333,995275,656842,5647,339457,527560,95.0,62.0
Rajasthan,Sirohi,24.7976905263158,72.75309131578943,117,Sirohi,1036346,309900,166906,2146,134089,238535,94.0,46.0
Rajasthan,Tonk,26.153935071707927,75.79192216427637,120,Tonk,1421326,478329,271330,1908,158264,298911,95.0,53.0
Rajasthan,Udaipur,24.44076752136749,73.84029839743584,130,Udaipur,3068420,973444,609185,14211,357846,665449,96.0,52.0
Sikkim,East,27.29600352941175,88.74908392156858,93,East,1709346,748382,604616,80037,352758,1086,88.0,79.0
Tamil Nadu,Ariyalur,11.190514836795256,79.22249643916912,616,Ariyalur,754894,269582,211022,1749,177502,223955,101.0,64.0
Tamil Nadu,Chennai,13.058098905608748,80.28139151846806,603,Chennai,4646732,1968079,1808197,217368,1096334,0,99.0,81.0
Tamil Nadu,Coimbatore,10.871376995940452,77.07619012178621,632,Coimbatore,3458045,1394790,1241117,63273,896325,284795,100.0,76.0
Tamil Nadu,Cuddalore,11.57587300613498,79.63002365371497,617,Cuddalore,2605914,1000322,814959,15396,598412,497429,99.0,70.0
Tamil Nadu,Dharmapuri,12.300141200000006,78.11509813333339,630,Dharmapuri,1506843,527599,390110,3651,337972,396819,95.0,61.0
Tamil Nadu,Dindigul,10.377801390820574,77.78011279554937,612,Dindigul,2159775,816180,665654,9155,500057,443818,100.0,69.0
Tamil Nadu,Erode,11.267012155963302,77.42034334862392,610,Erode,2251744,828300,664362,18604,595211,411286,99.0,66.0
Tamil Nadu,Kancheepuram,12.496424756511884,80.08820360135913,604,Kancheepuram,3998252,1611461,1401921,100322,961161,438799,99.0,75.0
Tamil Nadu,Kanniyakumari,8.183466300191206,77.32053064053538,629,Kanniyakumari,1870374,780541,768197,15673,465692,104253,102.0,83.0
Tamil Nadu,Karur,10.79532776617955,78.08749686847604,613,Karur,1064493,401726,325318,4915,264949,212241,102.0,68.0
Tamil Nadu,Madurai,9.904313833333331,78.01366033333332,623,Madurai,3038252,1223810,1049620,34097,754141,417718,99.0,75.0
Tamil Nadu,Nagapattinam,10.789468161718286,79.79437299431483,618,Nagapattinam,1616450,640916,572092,5585,381940,399016,103.0,75.0
Tamil Nadu,Namakkal,11.33766638477801,78.14624841437633,609,Namakkal,1726601,653312,522819,8960,441044,370357,99.0,68.0
Tamil Nadu,Perambalur,11.260137758112096,78.86034011799416,615,Perambalur,565223,208011,167812,1507,135751,155413,100.0,66.0
Tamil Nadu,Pudukkottai,10.130514816433578,79.05444484265728,621,Pudukkottai,1618345,608776,501769,4494,354493,399712,101.0,69.0
Tamil Nadu,Ramanathapuram,9.31286995153476,78.99185362412462,626,Ramanathapuram,1353445,536487,442459,5172,291400,290478,98.0,72.0
Tamil Nadu,Salem,11.629324202127655,78.2478257978723,608,Salem,3482056,1285107,1000455,20660,835377,572813,95.0,66.0
Tamil Nadu,Sivaganga,9.960306580645158,78.56535729032255,622,Sivaganga,1339101,526304,433440,5773,314270,309224,100.0,72.0
Tamil Nadu,Thanjavur,10.387692255892237,79.3194869107745,620,Thanjavur,2405890,944264,846734,13495,555582,479070,103.0,74.0
Tamil Nadu,Theni,9.924066666666668,77.43458833333332,624,Theni,1245899,479403,390677,4667,312310,189328,99.0,70.0
Tamil Nadu,Thiruvallur,13.275858101752885,80.19724702864492,602,Thiruvallur,3728104,1495711,1296010,75634,909400,387237,99.0,75.0
Tamil Nadu,Thiruvarur,10.368927409395978,79.60322893959727,619,Thiruvarur,1264277,503085,443386,4416,303114,321331,102.0,75.0
Tamil Nadu,Tiruvannamalai,12.419318947368414,79.23265631578953,606,Tiruvannamalai,2464875,909803,717010,6445,549077,563102,99.0,66.0
Tamil Nadu,Vellore,12.784882632293078,79.02643283582084,605,Vellore,3936331,1504355,1269573,20623,865913,653499,101.0,70.0
Tamil Nadu,Virudhunagar,9.468872195892564,77.87641469194315,625,Virudhunagar,1942288,760375,638413,10219,505950,363782,101.0,72.0
Tripura,Dhalai,23.781360477941163,91.94654283088232,291,Dhalai,378230,151643,124574,273,46875,89457,94.0,73.0
Tripura,North Tripura,24.121739755351683,92.17842538226292,292,North Tripura,693947,275646,244756,997,81601,150437,97.0,75.0
Tripura,South Tripura,23.211874098057383,91.6065807585568,290,South Tripura,876001,351082,295728,948,133744,219171,96.0,74.0
Tripura,West Tripura,23.780166241299337,91.41310788863107,289,West Tripura,1725739,722998,638356,6394,314567,289621,96.0,79.0
Uttar Pradesh,Agra,26.99512974910393,78.05278291517321,146,Agra,4418797,1614594,1065916,27183,536402,496971,87.0,61.0
Uttar Pradesh,Aligarh,27.93748576850093,78.00146831119557,143,Aligarh,3673889,1283380,809187,13634,268120,582117,88.0,57.0
Uttar Pradesh,Allahabad,25.392038662316445,82.05172446982063,175,Allahabad,5954391,2199340,1466387,24122,391542,983266,90.0,62.0
Uttar Pradesh,Ambedkar Nagar,26.39119025974028,82.68282142857147,178,Ambedkar Nagar,2397888,846676,640263,2509,99581,501559,98.0,62.0
Uttar Pradesh,Auraiya,26.66892394014961,79.42637057356607,162,Auraiya,1379545,546198,384638,2404,65479,255836,86.0,67.0
Uttar Pradesh,Azamgarh,26.008290954773837,83.01220251256285,191,Azamgarh,4613913,1559414,1212503,6652,183381,891024,102.0,60.0
Uttar Pradesh,Baghpat,29.045793499999988,77.30266300000001,139,Baghpat,1303048,489858,308112,2989,119121,246055,86.0,61.0
Uttar Pradesh,Bahraich,27.691776300578027,81.46779783237004,180,Bahraich,3487731,878285,520083,2681,85814,698520,89.0,40.0
Uttar Pradesh,Ballia,25.86075638297873,84.03651978723408,193,Ballia,3239774,1160960,802630,4672,119972,564927,94.0,61.0
Uttar Pradesh,Balrampur,27.449076537911324,82.47158326180256,182,Balrampur,2148665,544943,323414,1551,57400,410070,93.0,40.0
Uttar Pradesh,Banda,25.351885902503284,80.52487391304344,170,Banda,1799410,630626,372311,1655,73522,378056,86.0,56.0
Uttar Pradesh,Bara Banki,26.922777025232424,81.35762350597606,176,Bara Banki,3260699,1010518,681940,3159,108116,635840,91.0,52.0
Uttar Pradesh,Bareilly,28.51101940789474,79.43187072368416,150,Bareilly,4448359,1342697,849062,15164,272830,631613,89.0,49.0
Uttar Pradesh,Basti,26.833880454545447,82.69790590909092,185,Basti,2464464,819719,574064,3423,108101,513960,96.0,57.0
Uttar Pradesh,Bijnor,29.313974259681096,78.45098815489754,134,Bijnor,3682713,1241471,893922,7303,268353,683875,92.0,58.0
Uttar Pradesh,Bulandshahr,28.34875862068968,78.01082758620684,142,Bulandshahr,3499171,1253314,778342,7865,223922,658449,90.0,58.0
Uttar Pradesh,Chandauli,25.1180859611231,83.25307062634984,196,Chandauli,1952756,699454,475152,3492,99602,344937,92.0,60.0
Uttar Pradesh,Chitrakoot,25.159924623803,81.07666087551297,171,Chitrakoot,991730,330339,200733,827,41046,207237,88.0,54.0
Uttar Pradesh,Deoria,26.42218856548857,83.8244070686071,190,Deoria,3100946,1079288,795951,4469,150001,597778,102.0,60.0
Uttar Pradesh,Etah,27.591155309734443,78.70021858407083,201,Etah,1774480,647042,408160,2635,69591,334246,87.0,59.0
Uttar Pradesh,Etawah,26.78817670157068,79.07621806282728,161,Etawah,1581810,623583,438420,2964,113098,265643,87.0,67.0
Uttar Pradesh,Faizabad,26.60589185185181,82.00783530864202,177,Faizabad,2470996,838339,612562,4746,127754,510378,96.0,59.0
Uttar Pradesh,Farrukhabad,27.45063297872342,79.4406284574468,159,Farrukhabad,1885204,654827,437850,2624,88081,316647,87.0,58.0
Uttar Pradesh,Fatehpur,25.8374362030905,80.85416203090509,172,Fatehpur,2632733,911003,601163,3385,75263,558807,90.0,57.0
Uttar Pradesh,Firozabad,27.20963993055552,78.42660624999998,147,Firozabad,2498156,912314,609492,5834,196080,349747,88.0,61.0
Uttar Pradesh,Gautam Buddha Nagar,28.393311038961038,77.52462467532465,141,Gautam Buddha Nagar,1648115,666065,456882,53181,257586,170835,85.0,68.0
Uttar Pradesh,Ghaziabad,28.74997308584685,77.67441879350343,140,Ghaziabad,4681645,1811397,1311867,78116,695130,355407,88.0,67.0
Uttar Pradesh,Ghazipur,25.624724775583484,83.5360854578097,195,Ghazipur,3620268,1293553,903996,5309,105767,700173,95.0,61.0
Uttar Pradesh,Gonda,27.157215552099505,82.0226888024882,183,Gonda,3433919,1034181,645813,4313,104084,673578,92.0,49.0
Uttar Pradesh,Gorakhpur,26.63315886792452,83.3549560377358,188,Gorakhpur,4440895,1593890,1106438,14597,296619,761958,95.0,61.0
Uttar Pradesh,Hardoi,27.337409090909137,80.26411767676768,155,Hardoi,4092845,1374587,847014,3845,95508,786613,87.0,54.0
Uttar Pradesh,Jalaun,26.067954587155988,79.36686911314993,165,Jalaun,1689974,653430,421766,2217,104176,304856,87.0,64.0
Uttar Pradesh,Jaunpur,25.70141280913127,82.54315351934063,194,Jaunpur,4494204,1565394,1166283,8002,181467,926088,102.0,61.0
Uttar Pradesh,Jhansi,25.45581535234902,78.89954580536917,166,Jhansi,1998603,783705,520808,8517,183340,309592,89.0,65.0
Uttar Pradesh,Jyotiba Phule Nagar,28.870498984771597,78.39009365482241,137,Jyotiba Phule Nagar,1840221,600541,382569,2825,89329,335888,91.0,53.0
Uttar Pradesh,Kannauj,26.993988617886185,79.64437940379408,160,Kannauj,1656616,603596,413491,2488,61491,299785,88.0,61.0
Uttar Pradesh,Kanpur Dehat,26.43047641196011,79.98710083056478,163,Kanpur Dehat,1796184,692964,477279,2682,49753,363933,86.0,65.0
Uttar Pradesh,Kaushambi,25.53587532051282,81.41811282051287,174,Kaushambi,1599596,507279,306145,1503,43753,349856,91.0,51.0
Uttar Pradesh,Kushinagar,26.892530675909864,83.92261542461007,189,Kushinagar,3564544,1183722,771098,3486,127331,742324,96.0,55.0
Uttar Pradesh,Lalitpur,24.58877161016945,78.60082330508473,167,Lalitpur,1221592,397586,243605,1079,77082,258013,91.0,52.0
Uttar Pradesh,Lucknow,26.838233589251463,80.89706026871404,157,Lucknow,4589838,1742440,1384820,68506,582769,344155,92.0,68.0
Uttar Pradesh,Mahoba,25.34529670138888,79.67863003472216,169,Mahoba,875958,302283,185823,1316,42936,198298,88.0,56.0
Uttar Pradesh,Mainpuri,27.17386862302482,79.03501851015807,148,Mainpuri,1868529,712110,491775,2642,79022,338475,88.0,64.0
Uttar Pradesh,Mathura,27.59390432801821,77.62153416856502,145,Mathura,2547184,943346,564400,8726,281239,407488,86.0,59.0
Uttar Pradesh,Mau,26.01082203791469,83.50582654028433,192,Mau,2205968,773082,589962,2656,149908,352207,98.0,62.0
Uttar Pradesh,Meerut,29.02957625698323,77.80611005586593,138,Meerut,3443689,1254520,886968,23717,425624,381520,89.0,62.0
Uttar Pradesh,Mirzapur,25.10207959183675,82.60126628571429,199,Mirzapur,2496970,865837,562846,4447,145997,465152,90.0,57.0
Uttar Pradesh,Moradabad,28.851770406189537,78.73580193423597,135,Moradabad,4772006,1357435,906413,11690,281758,692398,91.0,47.0
Uttar Pradesh,Muzaffarnagar,29.470507977736563,77.64017847866423,133,Muzaffarnagar,4143512,1448528,968811,10077,368153,673746,89.0,58.0
Uttar Pradesh,Pilibhit,28.52024175035868,79.90103974175037,151,Pilibhit,2031007,654290,406805,2870,83006,371752,89.0,52.0
Uttar Pradesh,Pratapgarh,25.864842731707316,81.93530048780492,131,Pratapgarh,867848,250122,151393,716,71612,209813,98.0,46.0
Uttar Pradesh,Pratapgarh,25.864842731707316,81.93530048780492,173,Pratapgarh,3209141,1121381,810178,5149,140538,711085,100.0,60.0
Uttar Pradesh,Rae Bareli,26.253902840059787,81.22260463378181,158,Rae Bareli,3405559,1165965,799878,5184,247856,705025,94.0,58.0
Uttar Pradesh,Rampur,28.83244727272725,79.10977333333337,136,Rampur,2335819,630408,413258,3847,131112,396775,91.0,45.0
Uttar Pradesh,Saharanpur,30.03381165217392,77.59905147826095,132,Saharanpur,3466382,1220114,856994,9699,404499,605082,89.0,60.0
Uttar Pradesh,Sant Kabir Nagar,26.791596516393444,83.0387764344262,186,Sant Kabir Nagar,1715183,567098,387851,2031,79525,324972,97.0,56.0
Uttar Pradesh,Shahjahanpur,27.991389350649328,79.8302275324675,152,Shahjahanpur,3006538,915142,575788,3889,115163,520289,87.0,50.0
Uttar Pradesh,Sitapur,27.501995963091108,80.85288881199547,154,Sitapur,4483992,1397702,886031,3874,102040,827583,89.0,51.0
Uttar Pradesh,Sonbhadra,24.46693268858798,83.06816324951639,200,Sonbhadra,1862559,601988,383720,5149,95582,337048,92.0,53.0
Uttar Pradesh,Sultanpur,26.2846386419753,82.05710456790123,179,Sultanpur,3797117,1300248,939654,5956,233701,839737,98.0,59.0
Uttar Pradesh,Unnao,26.63163990895297,80.636773292868,156,Unnao,3108367,1053063,720521,3476,99466,596317,91.0,57.0
Uttar Pradesh,Varanasi,25.36057088888889,82.82529666666672,197,Varanasi,3676841,1389116,1014787,19214,336056,438935,91.0,65.0
Uttaranchal,Almora,29.683532133676103,79.50165064267351,64,Almora,622506,231604,204893,1830,109876,260056,114.0,70.0
Uttaranchal,Bageshwar,29.98703393393397,79.83954354354357,63,Bageshwar,259898,97546,81937,435,47083,96031,109.0,69.0
Uttaranchal,Chamoli,30.58338611464965,79.56281095541402,57,Chamoli,391605,155395,125161,899,71524,163434,102.0,72.0
Uttaranchal,Champawat,29.29142393939393,80.07720212121217,65,Champawat,259648,102015,75711,548,37725,85202,98.0,68.0
Uttaranchal,Pithoragarh,30.14720631868129,80.34229230769236,62,Pithoragarh,483439,189623,155927,1344,95421,183687,102.0,71.0
Uttaranchal,Tehri Garhwal,30.463700918635173,78.48783792650917,59,Tehri Garhwal,618931,227406,180588,1366,117239,227059,108.0,66.0
Uttaranchal,Udham Singh Nagar,29.02779577677222,79.45629004524895,67,Udham Singh Nagar,1648902,598525,439314,7883,254802,269406,92.0,63.0
Uttaranchal,Uttarkashi,30.968958552036234,78.56880615384617,56,Uttarkashi,330086,128237,86889,602,52621,112148,96.0,65.0
West Bengal,Bankura,23.081280892857155,87.12640053571437,339,Bankura,3596674,1299337,933655,4273,334670,900515,96.0,62.0
West Bengal,Barddhaman,23.444453888888884,87.8150581111111,335,Barddhaman,7717563,2918040,2329168,32323,1049943,1364868,95.0,68.0
West Bengal,Birbhum,24.06389342723,87.65153089201888,334,Birbhum,3502404,1201481,956966,5210,333752,831044,96.0,62.0
West Bengal,Dakshin Dinajpur,25.342094363021435,88.69821679819614,331,Dakshin Dinajpur,1676276,596474,487211,2518,168069,390949,96.0,65.0
West Bengal,Darjiling,26.839619571045585,88.33145067024122,327,Darjiling,1846823,717673,597912,10943,297176,303284,97.0,71.0
West Bengal,Haora,22.401674174428507,87.99421176968654,341,Haora,4850029,1942824,1662382,30751,796953,483384,94.0,74.0
West Bengal,Hugli,22.87929264705881,88.00010264705891,338,Hugli,5519145,2211777,1866611,31725,965258,992085,96.0,74.0
West Bengal,Jalpaiguri,26.62642031250004,89.04154375000003,328,Jalpaiguri,3872846,1396622,1102158,9322,382500,798378,95.0,65.0
West Bengal,Kolkata,22.550581481481483,88.3527648148148,342,Kolkata,4496694,1926915,1661222,136618,927602,0,91.0,80.0
West Bengal,Maldah,25.08026802575105,88.17191684549356,332,Maldah,3988845,1152019,934413,5357,297716,830318,94.0,52.0
West Bengal,Murshidabad,24.25950655391121,88.16816860465121,333,Murshidabad,7103807,2177187,1878647,7951,541169,1501066,96.0,57.0
West Bengal,Nadia,23.56410971055088,88.58293034547152,336,Nadia,5167600,1878866,1601689,12787,623729,1081381,95.0,67.0
West Bengal,Puruliya,23.254192328767108,86.3968532876713,340,Puruliya,2930115,1002058,622847,3551,189889,653219,96.0,55.0
West Bengal,Uttar Dinajpur,26.044619165196977,88.23595232216337,330,Uttar Dinajpur,3007134,853495,636172,2883,199307,683981,94.0,50.0
